<?xml version="1.0" encoding="utf-8"?>
<kml xmlns="http://www.opengis.net/kml/2.2">
  <Document>
    <open>1</open>
    <Folder>
      <name>Stops</name>
      <Placemark>
        <name>NORTHGATE BLVD &amp; WINTER GARDEN AVE (NB)</name>
        <description>Buses head NB</description>
        <Point>
          <coordinates>-121.475353,38.625807</coordinates>
        </Point>
      </Placemark>
      <Placemark>
        <name>I-5 FWY &amp; SEAMAS AVE (NB)</name>
        <description>Buses head NB</description>
        <Point>
          <coordinates>-121.520596,38.525752</coordinates>
        </Point>
      </Placemark>
      <Placemark>
        <name>Q ST &amp; 5TH ST (EB)</name>
        <description>Buses head EB</description>
        <Point>
          <coordinates>-121.503227,38.574230</coordinates>
        </Point>
      </Placemark>
      <Placemark>
        <name>Q ST &amp; 7TH ST (EB)</name>
        <description>Buses head EB</description>
        <Point>
          <coordinates>-121.500527,38.573513</coordinates>
        </Point>
      </Placemark>
      <Placemark>
        <name>Q ST &amp; 9TH ST (EB)</name>
        <description>Buses head EB</description>
        <Point>
          <coordinates>-121.497856,38.572819</coordinates>
        </Point>
      </Placemark>
      <Placemark>
        <name>Q ST &amp; 10TH ST (EB)</name>
        <description>Buses head EB</description>
        <Point>
          <coordinates>-121.496666,38.572495</coordinates>
        </Point>
      </Placemark>
      <Placemark>
        <name>Q ST &amp; 11TH ST (EB)</name>
        <description>Buses head EB</description>
        <Point>
          <coordinates>-121.495422,38.572105</coordinates>
        </Point>
      </Placemark>
      <Placemark>
        <name>Q ST &amp; 13TH ST (EB)</name>
        <description>Buses head EB</description>
        <Point>
          <coordinates>-121.492424,38.571343</coordinates>
        </Point>
      </Placemark>
      <Placemark>
        <name>15TH ST &amp; K ST (SB)</name>
        <description>Buses head SB</description>
        <Point>
          <coordinates>-121.486961,38.577812</coordinates>
        </Point>
      </Placemark>
      <Placemark>
        <name>3RD ST &amp; K ST (NB)</name>
        <description>Buses head NB</description>
        <Point>
          <coordinates>-121.503130,38.581653</coordinates>
        </Point>
      </Placemark>
      <Placemark>
        <name>9TH ST &amp; K ST (SB)</name>
        <description>Buses head SB</description>
        <Point>
          <coordinates>-121.495529,38.579250</coordinates>
        </Point>
      </Placemark>
      <Placemark>
        <name>9TH ST &amp; L ST (SB)</name>
        <description>Buses head SB</description>
        <Point>
          <coordinates>-121.496040,38.578034</coordinates>
        </Point>
      </Placemark>
      <Placemark>
        <name>9TH ST &amp; N ST (SB)</name>
        <description>Buses head SB</description>
        <Point>
          <coordinates>-121.496941,38.576031</coordinates>
        </Point>
      </Placemark>
      <Placemark>
        <name>9TH ST &amp; Q ST (SB)</name>
        <description>Buses head SB</description>
        <Point>
          <coordinates>-121.498350,38.572679</coordinates>
        </Point>
      </Placemark>
      <Placemark>
        <name>9TH ST &amp; T ST (SB)</name>
        <description>Buses head SB</description>
        <Point>
          <coordinates>-121.499817,38.569313</coordinates>
        </Point>
      </Placemark>
      <Placemark>
        <name>9TH ST &amp; V ST (SB)</name>
        <description>Buses head SB</description>
        <Point>
          <coordinates>-121.500717,38.567246</coordinates>
        </Point>
      </Placemark>
      <Placemark>
        <name>9TH ST &amp; W ST (SB)</name>
        <description>Buses head SB</description>
        <Point>
          <coordinates>-121.501259,38.566151</coordinates>
        </Point>
      </Placemark>
      <Placemark>
        <name>BROADWAY &amp; 10TH ST (EB)</name>
        <description>Buses head EB</description>
        <Point>
          <coordinates>-121.501083,38.563839</coordinates>
        </Point>
      </Placemark>
      <Placemark>
        <name>RIVERSIDE BLVD &amp; BROADWAY (SB)</name>
        <description>Buses head SB</description>
        <Point>
          <coordinates>-121.498886,38.562756</coordinates>
        </Point>
      </Placemark>
      <Placemark>
        <name>RIVERSIDE BLVD &amp; BEVERLY WAY (SB)</name>
        <description>Buses head SB</description>
        <Point>
          <coordinates>-121.499649,38.561062</coordinates>
        </Point>
      </Placemark>
      <Placemark>
        <name>RIVERSIDE BLVD &amp; CASTRO WAY (SB)</name>
        <description>Buses head SB</description>
        <Point>
          <coordinates>-121.500572,38.559460</coordinates>
        </Point>
      </Placemark>
      <Placemark>
        <name>RIVERSIDE BLVD &amp; FREMONT WAY (SB)</name>
        <description>Buses head SB</description>
        <Point>
          <coordinates>-121.501877,38.557182</coordinates>
        </Point>
      </Placemark>
      <Placemark>
        <name>RIVERSIDE BLVD &amp; 3RD AVE (SB)</name>
        <description>Buses head SB</description>
        <Point>
          <coordinates>-121.502678,38.555843</coordinates>
        </Point>
      </Placemark>
      <Placemark>
        <name>RIVERSIDE BLVD &amp; SWANSTON DR (SB)</name>
        <description>Buses head SB</description>
        <Point>
          <coordinates>-121.503639,38.554222</coordinates>
        </Point>
      </Placemark>
      <Placemark>
        <name>RIVERSIDE BLVD &amp; MARIAN WAY (SB)</name>
        <description>Buses head SB</description>
        <Point>
          <coordinates>-121.504776,38.552261</coordinates>
        </Point>
      </Placemark>
      <Placemark>
        <name>RIVERSIDE BLVD &amp; 6TH AVE (SB)</name>
        <description>Buses head SB</description>
        <Point>
          <coordinates>-121.505272,38.551373</coordinates>
        </Point>
      </Placemark>
      <Placemark>
        <name>RIVERSIDE BLVD &amp; 8TH AVE (SB)</name>
        <description>Buses head SB</description>
        <Point>
          <coordinates>-121.506332,38.549553</coordinates>
        </Point>
      </Placemark>
      <Placemark>
        <name>RIVERSIDE BLVD &amp; 10TH AVE (SB)</name>
        <description>Buses head SB</description>
        <Point>
          <coordinates>-121.507477,38.547730</coordinates>
        </Point>
      </Placemark>
      <Placemark>
        <name>RIVERSIDE BLVD &amp; DARNEL WAY (SB)</name>
        <description>Buses head SB</description>
        <Point>
          <coordinates>-121.508957,38.543701</coordinates>
        </Point>
      </Placemark>
      <Placemark>
        <name>RIVERSIDE BLVD &amp; SHERBURN AVE (SB)</name>
        <description>Buses head SB</description>
        <Point>
          <coordinates>-121.509415,38.541939</coordinates>
        </Point>
      </Placemark>
      <Placemark>
        <name>RIVERSIDE BLVD &amp; SUTTERVILLE RD (SB)</name>
        <description>Buses head SB</description>
        <Point>
          <coordinates>-121.509827,38.540775</coordinates>
        </Point>
      </Placemark>
      <Placemark>
        <name>RIVERSIDE BLVD &amp; SUTTERVILLE RD 2 (SB)</name>
        <description>Buses head SB</description>
        <Point>
          <coordinates>-121.511589,38.539291</coordinates>
        </Point>
      </Placemark>
      <Placemark>
        <name>RIVERSIDE BLVD &amp; BROWNWYK DR (SB)</name>
        <description>Buses head SB</description>
        <Point>
          <coordinates>-121.513397,38.537777</coordinates>
        </Point>
      </Placemark>
      <Placemark>
        <name>RIVERSIDE BLVD &amp; DERICK WAY (SB)</name>
        <description>Buses head SB</description>
        <Point>
          <coordinates>-121.514763,38.536514</coordinates>
        </Point>
      </Placemark>
      <Placemark>
        <name>RIVERSIDE BLVD &amp; 25TH AVE (SB)</name>
        <description>Buses head SB</description>
        <Point>
          <coordinates>-121.516190,38.534294</coordinates>
        </Point>
      </Placemark>
      <Placemark>
        <name>RIVERSIDE BLVD &amp; RIO LN (SB)</name>
        <description>Buses head SB</description>
        <Point>
          <coordinates>-121.518105,38.531990</coordinates>
        </Point>
      </Placemark>
      <Placemark>
        <name>RIVERSIDE BLVD &amp; PIEDMONT DR (SB)</name>
        <description>Buses head SB</description>
        <Point>
          <coordinates>-121.518425,38.530350</coordinates>
        </Point>
      </Placemark>
      <Placemark>
        <name>RIVERSIDE BLVD &amp; CASILADA WAY (SB)</name>
        <description>Buses head SB</description>
        <Point>
          <coordinates>-121.519249,38.529118</coordinates>
        </Point>
      </Placemark>
      <Placemark>
        <name>RIVERSIDE BLVD &amp; DORSET WAY (SB)</name>
        <description>Buses head SB</description>
        <Point>
          <coordinates>-121.521141,38.527191</coordinates>
        </Point>
      </Placemark>
      <Placemark>
        <name>RIVERSIDE BLVD &amp; SURF WAY (SB)</name>
        <description>Buses head SB</description>
        <Point>
          <coordinates>-121.522385,38.524288</coordinates>
        </Point>
      </Placemark>
      <Placemark>
        <name>35TH AVE &amp; RIVERSIDE BLVD (EB)</name>
        <description>Buses head EB</description>
        <Point>
          <coordinates>-121.521843,38.523098</coordinates>
        </Point>
      </Placemark>
      <Placemark>
        <name>35TH AVE &amp; LONSDALE DR (EB)</name>
        <description>Buses head EB</description>
        <Point>
          <coordinates>-121.518306,38.522359</coordinates>
        </Point>
      </Placemark>
      <Placemark>
        <name>35TH AVE &amp; GLORIA DR (EB)</name>
        <description>Buses head EB</description>
        <Point>
          <coordinates>-121.514282,38.521542</coordinates>
        </Point>
      </Placemark>
      <Placemark>
        <name>RIVERSIDE BLVD &amp; SEAMAS AVE (SB)</name>
        <description>Buses head SB</description>
        <Point>
          <coordinates>-121.522408,38.525379</coordinates>
        </Point>
      </Placemark>
      <Placemark>
        <name>RIVERSIDE BLVD &amp; FLORIN RD (WB)</name>
        <description>Buses head WB</description>
        <Point>
          <coordinates>-121.543228,38.510010</coordinates>
        </Point>
      </Placemark>
      <Placemark>
        <name>RIVERSIDE BLVD &amp; PARK RIVIERA WAY (WB)</name>
        <description>Buses head WB</description>
        <Point>
          <coordinates>-121.544983,38.508339</coordinates>
        </Point>
      </Placemark>
      <Placemark>
        <name>RIVERSIDE BLVD &amp; GALLEY CT (WB)</name>
        <description>Buses head WB</description>
        <Point>
          <coordinates>-121.544922,38.506664</coordinates>
        </Point>
      </Placemark>
      <Placemark>
        <name>RIVERSIDE BLVD &amp; ASHORE WAY (WB)</name>
        <description>Buses head WB</description>
        <Point>
          <coordinates>-121.546158,38.504536</coordinates>
        </Point>
      </Placemark>
      <Placemark>
        <name>RIVERSIDE BLVD &amp; ORLEANS WAY (WB)</name>
        <description>Buses head WB</description>
        <Point>
          <coordinates>-121.548676,38.501598</coordinates>
        </Point>
      </Placemark>
      <Placemark>
        <name>RIVERSIDE BLVD &amp; RIVERTREE WAY (WB)</name>
        <description>Buses head WB</description>
        <Point>
          <coordinates>-121.551804,38.498074</coordinates>
        </Point>
      </Placemark>
      <Placemark>
        <name>POCKET RD &amp; PORTINAO CIR 1 (SB)</name>
        <description>Buses head SB</description>
        <Point>
          <coordinates>-121.553009,38.495808</coordinates>
        </Point>
      </Placemark>
      <Placemark>
        <name>POCKET RD &amp; PORTINAO CIR 2 (SB)</name>
        <description>Buses head SB</description>
        <Point>
          <coordinates>-121.552528,38.494270</coordinates>
        </Point>
      </Placemark>
      <Placemark>
        <name>POCKET RD &amp; RIVER ISLE WAY (EB)</name>
        <description>Buses head EB</description>
        <Point>
          <coordinates>-121.550842,38.491070</coordinates>
        </Point>
      </Placemark>
      <Placemark>
        <name>POCKET RD &amp; PINIOS RIVER CT (SB)</name>
        <description>Buses head SB</description>
        <Point>
          <coordinates>-121.547821,38.486843</coordinates>
        </Point>
      </Placemark>
      <Placemark>
        <name>POCKET RD &amp; HATTERAS WAY (SB)</name>
        <description>Buses head SB</description>
        <Point>
          <coordinates>-121.546150,38.485031</coordinates>
        </Point>
      </Placemark>
      <Placemark>
        <name>POCKET RD &amp; BLUE DOLPHIN WAY (SB)</name>
        <description>Buses head SB</description>
        <Point>
          <coordinates>-121.540794,38.480396</coordinates>
        </Point>
      </Placemark>
      <Placemark>
        <name>POCKET RD &amp; BLACKWATER WAY (WB)</name>
        <description>Buses head WB</description>
        <Point>
          <coordinates>-121.537254,38.478485</coordinates>
        </Point>
      </Placemark>
      <Placemark>
        <name>POCKET RD &amp; WEST SHORE DR (EB)</name>
        <description>Buses head EB</description>
        <Point>
          <coordinates>-121.532997,38.476799</coordinates>
        </Point>
      </Placemark>
      <Placemark>
        <name>POCKET RD &amp; EAST SHORE DR (EB)</name>
        <description>Buses head EB</description>
        <Point>
          <coordinates>-121.520729,38.478218</coordinates>
        </Point>
      </Placemark>
      <Placemark>
        <name>POCKET RD &amp; GREENHAVEN DR (EB)</name>
        <description>Buses head EB</description>
        <Point>
          <coordinates>-121.515205,38.480805</coordinates>
        </Point>
      </Placemark>
      <Placemark>
        <name>POCKET RD &amp; RIVER VILLAGE DR (SB)</name>
        <description>Buses head SB</description>
        <Point>
          <coordinates>-121.543900,38.482952</coordinates>
        </Point>
      </Placemark>
      <Placemark>
        <name>HAVENSIDE DR &amp; RIVERSIDE BLVD (SB)</name>
        <description>Buses head SB</description>
        <Point>
          <coordinates>-121.532623,38.513241</coordinates>
        </Point>
      </Placemark>
      <Placemark>
        <name>HAVENSIDE DR &amp; SAIL CT (SB)</name>
        <description>Buses head SB</description>
        <Point>
          <coordinates>-121.531197,38.507832</coordinates>
        </Point>
      </Placemark>
      <Placemark>
        <name>GLORIA DR &amp; HAVENSIDE DR (EB)</name>
        <description>Buses head EB</description>
        <Point>
          <coordinates>-121.530027,38.505993</coordinates>
        </Point>
      </Placemark>
      <Placemark>
        <name>GLORIA DR &amp; SENIOR WAY (EB)</name>
        <description>Buses head EB</description>
        <Point>
          <coordinates>-121.527573,38.506619</coordinates>
        </Point>
      </Placemark>
      <Placemark>
        <name>GLORIA DR &amp; TRESTLE GLEN WAY (EB)</name>
        <description>Buses head EB</description>
        <Point>
          <coordinates>-121.526405,38.506985</coordinates>
        </Point>
      </Placemark>
      <Placemark>
        <name>GREENHAVEN DR &amp; GLORIA RD (NB)</name>
        <description>Buses head NB</description>
        <Point>
          <coordinates>-121.524045,38.508587</coordinates>
        </Point>
      </Placemark>
      <Placemark>
        <name>GREENHAVEN DR &amp; SUNLIT CIR (NB)</name>
        <description>Buses head NB</description>
        <Point>
          <coordinates>-121.523624,38.509778</coordinates>
        </Point>
      </Placemark>
      <Placemark>
        <name>GREENHAVEN DR &amp; LEAF AVE (NB)</name>
        <description>Buses head NB</description>
        <Point>
          <coordinates>-121.524684,38.511677</coordinates>
        </Point>
      </Placemark>
      <Placemark>
        <name>GREENHAVEN DR &amp; ROYAL GREEN AVE (NB)</name>
        <description>Buses head NB</description>
        <Point>
          <coordinates>-121.525456,38.512858</coordinates>
        </Point>
      </Placemark>
      <Placemark>
        <name>GREENHAVEN DR &amp; RIVERSIDE BLVD (NB)</name>
        <description>Buses head NB</description>
        <Point>
          <coordinates>-121.527245,38.514553</coordinates>
        </Point>
      </Placemark>
      <Placemark>
        <name>43RD AVE &amp; JOHNFER WAY (EB)</name>
        <description>Buses head EB</description>
        <Point>
          <coordinates>-121.524597,38.515766</coordinates>
        </Point>
      </Placemark>
      <Placemark>
        <name>43RD AVE &amp; WOODSHIRE WAY (EB)</name>
        <description>Buses head EB</description>
        <Point>
          <coordinates>-121.519508,38.516205</coordinates>
        </Point>
      </Placemark>
      <Placemark>
        <name>GLORIA DR &amp; LAKE GLEN WAY (NB)</name>
        <description>Buses head NB</description>
        <Point>
          <coordinates>-121.518466,38.518273</coordinates>
        </Point>
      </Placemark>
      <Placemark>
        <name>GLORIA DR &amp; LAKE CREST WAY (NB)</name>
        <description>Buses head NB</description>
        <Point>
          <coordinates>-121.516278,38.519467</coordinates>
        </Point>
      </Placemark>
      <Placemark>
        <name>GLORIA DR &amp; 35TH AVE (NB)</name>
        <description>Buses head NB</description>
        <Point>
          <coordinates>-121.514178,38.520911</coordinates>
        </Point>
      </Placemark>
      <Placemark>
        <name>35TH AVE &amp; LONSDALE DR (WB)</name>
        <description>Buses head WB</description>
        <Point>
          <coordinates>-121.518885,38.522642</coordinates>
        </Point>
      </Placemark>
      <Placemark>
        <name>35TH AVE &amp; RIVERSIDE BLVD (WB)</name>
        <description>Buses head WB</description>
        <Point>
          <coordinates>-121.521674,38.523215</coordinates>
        </Point>
      </Placemark>
      <Placemark>
        <name>RIVERSIDE BLVD &amp; SURF WAY (NB)</name>
        <description>Buses head NB</description>
        <Point>
          <coordinates>-121.522203,38.524010</coordinates>
        </Point>
      </Placemark>
      <Placemark>
        <name>RIVERSIDE BLVD &amp; SEAMAS AVE (NB)</name>
        <description>Buses head NB</description>
        <Point>
          <coordinates>-121.522301,38.525459</coordinates>
        </Point>
      </Placemark>
      <Placemark>
        <name>RIVERSIDE BLVD &amp; DORSET WAY (NB)</name>
        <description>Buses head NB</description>
        <Point>
          <coordinates>-121.521240,38.526936</coordinates>
        </Point>
      </Placemark>
      <Placemark>
        <name>RIVERSIDE BLVD &amp; CASILADA WAY (NB)</name>
        <description>Buses head NB</description>
        <Point>
          <coordinates>-121.519244,38.528713</coordinates>
        </Point>
      </Placemark>
      <Placemark>
        <name>RIVERSIDE BLVD &amp; PIEDMONT DR (NB)</name>
        <description>Buses head NB</description>
        <Point>
          <coordinates>-121.518260,38.530299</coordinates>
        </Point>
      </Placemark>
      <Placemark>
        <name>RIVERSIDE BLVD &amp; RIO LN (NB)</name>
        <description>Buses head NB</description>
        <Point>
          <coordinates>-121.517909,38.531854</coordinates>
        </Point>
      </Placemark>
      <Placemark>
        <name>RIVERSIDE BLVD &amp; WEBER WAY (NB)</name>
        <description>Buses head NB</description>
        <Point>
          <coordinates>-121.515943,38.534646</coordinates>
        </Point>
      </Placemark>
      <Placemark>
        <name>RIVERSIDE BLVD &amp; DERICK WAY (NB)</name>
        <description>Buses head NB</description>
        <Point>
          <coordinates>-121.514687,38.536419</coordinates>
        </Point>
      </Placemark>
      <Placemark>
        <name>RIVERSIDE BLVD &amp; BROWNWYK DR (NB)</name>
        <description>Buses head NB</description>
        <Point>
          <coordinates>-121.513378,38.537601</coordinates>
        </Point>
      </Placemark>
      <Placemark>
        <name>RIVERSIDE BLVD &amp; SUTTERVILLE RD 1 (NB)</name>
        <description>Buses head NB</description>
        <Point>
          <coordinates>-121.511627,38.539116</coordinates>
        </Point>
      </Placemark>
      <Placemark>
        <name>RIVERSIDE BLVD &amp; SUTTERVILLE RD 2 (NB)</name>
        <description>Buses head NB</description>
        <Point>
          <coordinates>-121.510296,38.539984</coordinates>
        </Point>
      </Placemark>
      <Placemark>
        <name>RIVERSIDE BLVD &amp; SHERBURN AVE (NB)</name>
        <description>Buses head NB</description>
        <Point>
          <coordinates>-121.509165,38.541811</coordinates>
        </Point>
      </Placemark>
      <Placemark>
        <name>RIVERSIDE BLVD &amp; DARNEL WAY (NB)</name>
        <description>Buses head NB</description>
        <Point>
          <coordinates>-121.508749,38.543481</coordinates>
        </Point>
      </Placemark>
      <Placemark>
        <name>RIVERSIDE BLVD &amp; 12TH AVE (NB)</name>
        <description>Buses head NB</description>
        <Point>
          <coordinates>-121.508030,38.546523</coordinates>
        </Point>
      </Placemark>
      <Placemark>
        <name>RIVERSIDE BLVD &amp; 10TH AVE (NB)</name>
        <description>Buses head NB</description>
        <Point>
          <coordinates>-121.506933,38.548241</coordinates>
        </Point>
      </Placemark>
      <Placemark>
        <name>RIVERSIDE BLVD &amp; 8TH AVE (NB)</name>
        <description>Buses head NB</description>
        <Point>
          <coordinates>-121.505973,38.549827</coordinates>
        </Point>
      </Placemark>
      <Placemark>
        <name>RIVERSIDE BLVD &amp; PERKINS WAY (NB)</name>
        <description>Buses head NB</description>
        <Point>
          <coordinates>-121.505066,38.551396</coordinates>
        </Point>
      </Placemark>
      <Placemark>
        <name>RIVERSIDE BLVD &amp; MARIAN WAY (NB)</name>
        <description>Buses head NB</description>
        <Point>
          <coordinates>-121.504557,38.552275</coordinates>
        </Point>
      </Placemark>
      <Placemark>
        <name>RIVERSIDE BLVD &amp; SWANSTON DR (NB)</name>
        <description>Buses head NB</description>
        <Point>
          <coordinates>-121.503449,38.554114</coordinates>
        </Point>
      </Placemark>
      <Placemark>
        <name>RIVERSIDE BLVD &amp; 3RD AVE (NB)</name>
        <description>Buses head NB</description>
        <Point>
          <coordinates>-121.502507,38.555736</coordinates>
        </Point>
      </Placemark>
      <Placemark>
        <name>RIVERSIDE BLVD &amp; FREMONT WAY (NB)</name>
        <description>Buses head NB</description>
        <Point>
          <coordinates>-121.501807,38.556963</coordinates>
        </Point>
      </Placemark>
      <Placemark>
        <name>RIVERSIDE BLVD &amp; CASTRO WAY (NB)</name>
        <description>Buses head NB</description>
        <Point>
          <coordinates>-121.500925,38.558471</coordinates>
        </Point>
      </Placemark>
      <Placemark>
        <name>RIVERSIDE BLVD &amp; 2ND AVE (NB)</name>
        <description>Buses head NB</description>
        <Point>
          <coordinates>-121.500230,38.559650</coordinates>
        </Point>
      </Placemark>
      <Placemark>
        <name>RIVERSIDE BLVD &amp; BEVERLY WAY (NB)</name>
        <description>Buses head NB</description>
        <Point>
          <coordinates>-121.499514,38.560872</coordinates>
        </Point>
      </Placemark>
      <Placemark>
        <name>RIVERSIDE BLVD &amp; BROADWAY (NB)</name>
        <description>Buses head NB</description>
        <Point>
          <coordinates>-121.498919,38.561969</coordinates>
        </Point>
      </Placemark>
      <Placemark>
        <name>7TH ST &amp; G ST (SB)</name>
        <description>Buses head SB</description>
        <Point>
          <coordinates>-121.496284,38.584359</coordinates>
        </Point>
      </Placemark>
      <Placemark>
        <name>7TH ST &amp; H ST (SB)</name>
        <description>Buses head SB</description>
        <Point>
          <coordinates>-121.496719,38.583336</coordinates>
        </Point>
      </Placemark>
      <Placemark>
        <name>7TH ST &amp; J ST (SB)</name>
        <description>Buses head SB</description>
        <Point>
          <coordinates>-121.497269,38.581947</coordinates>
        </Point>
      </Placemark>
      <Placemark>
        <name>7TH ST &amp; CAPITOL AVE (SB)</name>
        <description>Buses head SB</description>
        <Point>
          <coordinates>-121.499153,38.577652</coordinates>
        </Point>
      </Placemark>
      <Placemark>
        <name>7TH ST &amp; O ST (SB)</name>
        <description>Buses head SB</description>
        <Point>
          <coordinates>-121.499947,38.575760</coordinates>
        </Point>
      </Placemark>
      <Placemark>
        <name>BROADWAY &amp; RIVERSIDE BLVD (EB)</name>
        <description>Buses head EB</description>
        <Point>
          <coordinates>-121.497604,38.562885</coordinates>
        </Point>
      </Placemark>
      <Placemark>
        <name>BROADWAY &amp; 15TH ST (EB)</name>
        <description>Buses head EB</description>
        <Point>
          <coordinates>-121.493774,38.561901</coordinates>
        </Point>
      </Placemark>
      <Placemark>
        <name>BROADWAY &amp; 17TH ST (EB)</name>
        <description>Buses head EB</description>
        <Point>
          <coordinates>-121.490929,38.561192</coordinates>
        </Point>
      </Placemark>
      <Placemark>
        <name>BROADWAY &amp; 18TH ST (EB)</name>
        <description>Buses head EB</description>
        <Point>
          <coordinates>-121.489693,38.560837</coordinates>
        </Point>
      </Placemark>
      <Placemark>
        <name>BROADWAY &amp; FREEPORT BLVD (EB)</name>
        <description>Buses head EB</description>
        <Point>
          <coordinates>-121.488037,38.560391</coordinates>
        </Point>
      </Placemark>
      <Placemark>
        <name>BROADWAY &amp; 21ST ST (EB)</name>
        <description>Buses head EB</description>
        <Point>
          <coordinates>-121.485405,38.559696</coordinates>
        </Point>
      </Placemark>
      <Placemark>
        <name>BROADWAY &amp; 24TH ST (EB)</name>
        <description>Buses head EB</description>
        <Point>
          <coordinates>-121.481361,38.558601</coordinates>
        </Point>
      </Placemark>
      <Placemark>
        <name>BROADWAY &amp; 26TH ST (EB)</name>
        <description>Buses head EB</description>
        <Point>
          <coordinates>-121.479370,38.558090</coordinates>
        </Point>
      </Placemark>
      <Placemark>
        <name>BROADWAY &amp; 28TH ST (EB)</name>
        <description>Buses head EB</description>
        <Point>
          <coordinates>-121.476814,38.557407</coordinates>
        </Point>
      </Placemark>
      <Placemark>
        <name>ARCADE &amp; MARCONI LRT (NB)</name>
        <description>Buses head NB</description>
        <Point>
          <coordinates>-121.424434,38.621777</coordinates>
        </Point>
      </Placemark>
      <Placemark>
        <name>TIMBERLAKE WY &amp; BRUCEVILLE RD (EB)</name>
        <description>Buses head EB</description>
        <Point>
          <coordinates>-121.416347,38.465959</coordinates>
        </Point>
      </Placemark>
      <Placemark>
        <name>TIMBERLAKE WY &amp; HOSPITAL DR (SB)</name>
        <description>Buses head SB</description>
        <Point>
          <coordinates>-121.414715,38.464688</coordinates>
        </Point>
      </Placemark>
      <Placemark>
        <name>TIMBERLAKE WY &amp; RICHARDSON CT (SB)</name>
        <description>Buses head SB</description>
        <Point>
          <coordinates>-121.413563,38.462193</coordinates>
        </Point>
      </Placemark>
      <Placemark>
        <name>GLORIA DR &amp; ROSA DEL RIO WAY (SB)</name>
        <description>Buses head SB</description>
        <Point>
          <coordinates>-121.516350,38.519589</coordinates>
        </Point>
      </Placemark>
      <Placemark>
        <name>GLORIA DR &amp; LAKE GLEN WAY (SB)</name>
        <description>Buses head SB</description>
        <Point>
          <coordinates>-121.518677,38.518261</coordinates>
        </Point>
      </Placemark>
      <Placemark>
        <name>43RD AVE &amp; WOODSHIRE WAY (WB)</name>
        <description>Buses head WB</description>
        <Point>
          <coordinates>-121.519852,38.516331</coordinates>
        </Point>
      </Placemark>
      <Placemark>
        <name>43RD AVE &amp; SLP DR (WB)</name>
        <description>Buses head WB</description>
        <Point>
          <coordinates>-121.514958,38.516177</coordinates>
        </Point>
      </Placemark>
      <Placemark>
        <name>43RD AVE &amp; VALINE CT (WB)</name>
        <description>Buses head WB</description>
        <Point>
          <coordinates>-121.524056,38.516197</coordinates>
        </Point>
      </Placemark>
      <Placemark>
        <name>GREENHAVEN DR &amp; RIVERSIDE BLVD (SB)</name>
        <description>Buses head SB</description>
        <Point>
          <coordinates>-121.526459,38.513840</coordinates>
        </Point>
      </Placemark>
      <Placemark>
        <name>GREENHAVEN DR &amp; ROYAL GREEN AVE (SB)</name>
        <description>Buses head SB</description>
        <Point>
          <coordinates>-121.525574,38.512581</coordinates>
        </Point>
      </Placemark>
      <Placemark>
        <name>GREENHAVEN DR &amp; STARLIT CIR (SB)</name>
        <description>Buses head SB</description>
        <Point>
          <coordinates>-121.524757,38.511360</coordinates>
        </Point>
      </Placemark>
      <Placemark>
        <name>GREENHAVEN DR &amp; SUNLIT CIR (SB)</name>
        <description>Buses head SB</description>
        <Point>
          <coordinates>-121.523888,38.509586</coordinates>
        </Point>
      </Placemark>
      <Placemark>
        <name>GLORIA DR &amp; GREENHAVEN DR (WB)</name>
        <description>Buses head WB</description>
        <Point>
          <coordinates>-121.524513,38.507897</coordinates>
        </Point>
      </Placemark>
      <Placemark>
        <name>GLORIA DR &amp; SENIOR WAY (WB)</name>
        <description>Buses head WB</description>
        <Point>
          <coordinates>-121.527809,38.506695</coordinates>
        </Point>
      </Placemark>
      <Placemark>
        <name>HAVENSIDE DR &amp; GLORIA DR (NB)</name>
        <description>Buses head NB</description>
        <Point>
          <coordinates>-121.530434,38.506386</coordinates>
        </Point>
      </Placemark>
      <Placemark>
        <name>HAVENSIDE DR &amp; SPRINGBROOK CIR (NB)</name>
        <description>Buses head NB</description>
        <Point>
          <coordinates>-121.530947,38.507685</coordinates>
        </Point>
      </Placemark>
      <Placemark>
        <name>HAVENSIDE DR &amp; LAKESHORE CIR (NB)</name>
        <description>Buses head NB</description>
        <Point>
          <coordinates>-121.531706,38.509641</coordinates>
        </Point>
      </Placemark>
      <Placemark>
        <name>HAVENSIDE DR &amp; PARKLIN AVE (NB)</name>
        <description>Buses head NB</description>
        <Point>
          <coordinates>-121.532508,38.511690</coordinates>
        </Point>
      </Placemark>
      <Placemark>
        <name>HAVENSIDE DR &amp; RIVERSIDE BLVD (NB)</name>
        <description>Buses head NB</description>
        <Point>
          <coordinates>-121.532342,38.512957</coordinates>
        </Point>
      </Placemark>
      <Placemark>
        <name>RIVERSIDE BLVD &amp; LELAND HAVEN WY (WB)</name>
        <description>Buses head WB</description>
        <Point>
          <coordinates>-121.540522,38.511475</coordinates>
        </Point>
      </Placemark>
      <Placemark>
        <name>RIVERSIDE BLVD &amp; CLIPPER WY (WB)</name>
        <description>Buses head WB</description>
        <Point>
          <coordinates>-121.535773,38.512945</coordinates>
        </Point>
      </Placemark>
      <Placemark>
        <name>ELVERTA RD &amp; WALERGA RD (WB)</name>
        <description>Buses head WB</description>
        <Point>
          <coordinates>-121.365343,38.713432</coordinates>
        </Point>
      </Placemark>
      <Placemark>
        <name>ELVAS AVE &amp; 62ND ST (NB)</name>
        <description>Buses head NB</description>
        <Point>
          <coordinates>-121.428551,38.558525</coordinates>
        </Point>
      </Placemark>
      <Placemark>
        <name>CARLSON DR &amp; STATE UNIV DRIVE NORTH (EB)</name>
        <description>Buses head EB</description>
        <Point>
          <coordinates>-121.426140,38.564533</coordinates>
        </Point>
      </Placemark>
      <Placemark>
        <name>ELVAS AVE &amp; 63RD ST (SB)</name>
        <description>Buses head SB</description>
        <Point>
          <coordinates>-121.429970,38.560364</coordinates>
        </Point>
      </Placemark>
      <Placemark>
        <name>5TH ST &amp; I ST (NB)</name>
        <description>Buses head NB</description>
        <Point>
          <coordinates>-121.499825,38.582420</coordinates>
        </Point>
      </Placemark>
      <Placemark>
        <name>AMTRAK &amp; DEPOT (WB)</name>
        <description>Buses head WB</description>
        <Point>
          <coordinates>-121.500163,38.584547</coordinates>
        </Point>
      </Placemark>
      <Placemark>
        <name>DEL PASO BLVD &amp; HAWTHORNE (SB)</name>
        <description>Buses head SB</description>
        <Point>
          <coordinates>-121.457247,38.607159</coordinates>
        </Point>
      </Placemark>
      <Placemark>
        <name>BRUCEVILLE RD &amp; COSUMNES BLVD (NB)</name>
        <description>Buses head NB</description>
        <Point>
          <coordinates>-121.417160,38.458358</coordinates>
        </Point>
      </Placemark>
      <Placemark>
        <name>MEADOWVIEW RD &amp; DETROIT BLVD (WB)</name>
        <description>Buses head WB</description>
        <Point>
          <coordinates>-121.469393,38.481628</coordinates>
        </Point>
      </Placemark>
      <Placemark>
        <name>65TH ST &amp; WEST END ISLAND 1 (EB)</name>
        <description>Buses head EB</description>
        <Point>
          <coordinates>-121.427389,38.552908</coordinates>
        </Point>
      </Placemark>
      <Placemark>
        <name>65TH ST &amp; WEST END ISLAND 2 (EB)</name>
        <description>Buses head EB</description>
        <Point>
          <coordinates>-121.427250,38.552996</coordinates>
        </Point>
      </Placemark>
      <Placemark>
        <name>65TH ST &amp; EAST END ISLAND 2 (EB)</name>
        <description>Buses head EB</description>
        <Point>
          <coordinates>-121.427041,38.552879</coordinates>
        </Point>
      </Placemark>
      <Placemark>
        <name>FOLSOM BLVD &amp; 65TH ST (WB)</name>
        <description>Buses head WB</description>
        <Point>
          <coordinates>-121.428230,38.554680</coordinates>
        </Point>
      </Placemark>
      <Placemark>
        <name>FOLSOM BLVD &amp; 61ST ST (WB)</name>
        <description>Buses head WB</description>
        <Point>
          <coordinates>-121.431480,38.555920</coordinates>
        </Point>
      </Placemark>
      <Placemark>
        <name>FOLSOM BLVD &amp; 59TH ST (WB)</name>
        <description>Buses head WB</description>
        <Point>
          <coordinates>-121.434555,38.557102</coordinates>
        </Point>
      </Placemark>
      <Placemark>
        <name>FOLSOM BLVD &amp; 57TH ST (WB)</name>
        <description>Buses head WB</description>
        <Point>
          <coordinates>-121.437851,38.558407</coordinates>
        </Point>
      </Placemark>
      <Placemark>
        <name>FOLSOM BLVD &amp; RODEO WAY (WB)</name>
        <description>Buses head WB</description>
        <Point>
          <coordinates>-121.442566,38.560223</coordinates>
        </Point>
      </Placemark>
      <Placemark>
        <name>FOLSOM BLVD &amp; 51ST ST (WB)</name>
        <description>Buses head WB</description>
        <Point>
          <coordinates>-121.444145,38.560837</coordinates>
        </Point>
      </Placemark>
      <Placemark>
        <name>FOLSOM BLVD &amp; 48TH ST (WB)</name>
        <description>Buses head WB</description>
        <Point>
          <coordinates>-121.445976,38.561554</coordinates>
        </Point>
      </Placemark>
      <Placemark>
        <name>FOLSOM BLVD &amp; 46TH ST (WB)</name>
        <description>Buses head WB</description>
        <Point>
          <coordinates>-121.448212,38.562416</coordinates>
        </Point>
      </Placemark>
      <Placemark>
        <name>FOLSOM BLVD &amp; 45TH ST (WB)</name>
        <description>Buses head WB</description>
        <Point>
          <coordinates>-121.449333,38.562843</coordinates>
        </Point>
      </Placemark>
      <Placemark>
        <name>FOLSOM BLVD &amp; 43RD ST (WB)</name>
        <description>Buses head WB</description>
        <Point>
          <coordinates>-121.452049,38.563698</coordinates>
        </Point>
      </Placemark>
      <Placemark>
        <name>FOLSOM BLVD &amp; 41ST ST (WB)</name>
        <description>Buses head WB</description>
        <Point>
          <coordinates>-121.454178,38.564262</coordinates>
        </Point>
      </Placemark>
      <Placemark>
        <name>FOLSOM BLVD &amp; 39TH ST (WB)</name>
        <description>Buses head WB</description>
        <Point>
          <coordinates>-121.456924,38.565002</coordinates>
        </Point>
      </Placemark>
      <Placemark>
        <name>FOLSOM BLVD &amp; 37TH ST (WB)</name>
        <description>Buses head WB</description>
        <Point>
          <coordinates>-121.458969,38.565582</coordinates>
        </Point>
      </Placemark>
      <Placemark>
        <name>FOLSOM BLVD &amp; SANTA YNEZ WAY (WB)</name>
        <description>Buses head WB</description>
        <Point>
          <coordinates>-121.461113,38.566155</coordinates>
        </Point>
      </Placemark>
      <Placemark>
        <name>65TH ST &amp; WEST END ISLAND 3 (WB)</name>
        <description>Buses head WB</description>
        <Point>
          <coordinates>-121.427290,38.553116</coordinates>
        </Point>
      </Placemark>
      <Placemark>
        <name>FOLSOM BLVD &amp; 32ND ST (WB)</name>
        <description>Buses head WB</description>
        <Point>
          <coordinates>-121.465340,38.568470</coordinates>
        </Point>
      </Placemark>
      <Placemark>
        <name>CAPITOL AVE &amp; ALHAMBRA BLVD (WB)</name>
        <description>Buses head WB</description>
        <Point>
          <coordinates>-121.466919,38.569557</coordinates>
        </Point>
      </Placemark>
      <Placemark>
        <name>65TH ST &amp; EAST END ISLAND 3 (EB)</name>
        <description>Buses head EB</description>
        <Point>
          <coordinates>-121.426950,38.552969</coordinates>
        </Point>
      </Placemark>
      <Placemark>
        <name>MATHER LRS &amp; BAY 1 (NB)</name>
        <description>Buses head NB</description>
        <Point>
          <coordinates>-121.311234,38.584008</coordinates>
        </Point>
      </Placemark>
      <Placemark>
        <name>MATHER LRS &amp; BAY 2 (NB)</name>
        <description>Buses head NB</description>
        <Point>
          <coordinates>-121.311259,38.584219</coordinates>
        </Point>
      </Placemark>
      <Placemark>
        <name>8TH ST &amp; W ST (NB)</name>
        <description>Buses head NB</description>
        <Point>
          <coordinates>-121.501898,38.567338</coordinates>
        </Point>
      </Placemark>
      <Placemark>
        <name>8TH ST &amp; T ST (NB)</name>
        <description>Buses head NB</description>
        <Point>
          <coordinates>-121.500755,38.570217</coordinates>
        </Point>
      </Placemark>
      <Placemark>
        <name>MATHER LRS &amp; BAY 3 (WB)</name>
        <description>Buses head WB</description>
        <Point>
          <coordinates>-121.311643,38.584284</coordinates>
        </Point>
      </Placemark>
      <Placemark>
        <name>8TH ST &amp; Q ST (NB)</name>
        <description>Buses head NB</description>
        <Point>
          <coordinates>-121.499344,38.573528</coordinates>
        </Point>
      </Placemark>
      <Placemark>
        <name>8TH ST &amp; P ST (NB)</name>
        <description>Buses head NB</description>
        <Point>
          <coordinates>-121.498848,38.574669</coordinates>
        </Point>
      </Placemark>
      <Placemark>
        <name>8TH ST &amp; O ST (NB)</name>
        <description>Buses head NB</description>
        <Point>
          <coordinates>-121.498346,38.575768</coordinates>
        </Point>
      </Placemark>
      <Placemark>
        <name>8TH ST &amp; N ST (NB)</name>
        <description>Buses head NB</description>
        <Point>
          <coordinates>-121.497859,38.576787</coordinates>
        </Point>
      </Placemark>
      <Placemark>
        <name>8TH ST &amp; CAPITOL AVE (NB)</name>
        <description>Buses head NB</description>
        <Point>
          <coordinates>-121.497269,38.578054</coordinates>
        </Point>
      </Placemark>
      <Placemark>
        <name>8TH ST &amp; K ST (EB)</name>
        <description>Buses head EB</description>
        <Point>
          <coordinates>-121.496185,38.580656</coordinates>
        </Point>
      </Placemark>
      <Placemark>
        <name>8TH ST &amp; I ST (NB)</name>
        <description>Buses head NB</description>
        <Point>
          <coordinates>-121.495496,38.582222</coordinates>
        </Point>
      </Placemark>
      <Placemark>
        <name>8TH ST &amp; H ST (NB)</name>
        <description>Buses head NB</description>
        <Point>
          <coordinates>-121.494978,38.583449</coordinates>
        </Point>
      </Placemark>
      <Placemark>
        <name>F ST &amp; 10TH ST (EB)</name>
        <description>Buses head EB</description>
        <Point>
          <coordinates>-121.491348,38.584538</coordinates>
        </Point>
      </Placemark>
      <Placemark>
        <name>F ST &amp; 12TH ST (EB)</name>
        <description>Buses head EB</description>
        <Point>
          <coordinates>-121.488686,38.583839</coordinates>
        </Point>
      </Placemark>
      <Placemark>
        <name>F ST &amp; 14TH ST (EB)</name>
        <description>Buses head EB</description>
        <Point>
          <coordinates>-121.485771,38.583107</coordinates>
        </Point>
      </Placemark>
      <Placemark>
        <name>MATHER LRS &amp; BAY 4 (SB)</name>
        <description>Buses head SB</description>
        <Point>
          <coordinates>-121.311613,38.583958</coordinates>
        </Point>
      </Placemark>
      <Placemark>
        <name>F ST &amp; 16TH ST (EB)</name>
        <description>Buses head EB</description>
        <Point>
          <coordinates>-121.483139,38.582405</coordinates>
        </Point>
      </Placemark>
      <Placemark>
        <name>F ST &amp; 18TH ST (EB)</name>
        <description>Buses head EB</description>
        <Point>
          <coordinates>-121.480484,38.581715</coordinates>
        </Point>
      </Placemark>
      <Placemark>
        <name>F ST &amp; 19TH ST (EB)</name>
        <description>Buses head EB</description>
        <Point>
          <coordinates>-121.478760,38.581238</coordinates>
        </Point>
      </Placemark>
      <Placemark>
        <name>F ST &amp; 21ST ST (EB)</name>
        <description>Buses head EB</description>
        <Point>
          <coordinates>-121.476379,38.580589</coordinates>
        </Point>
      </Placemark>
      <Placemark>
        <name>F ST &amp; 23RD ST (EB)</name>
        <description>Buses head EB</description>
        <Point>
          <coordinates>-121.473869,38.579918</coordinates>
        </Point>
      </Placemark>
      <Placemark>
        <name>F ST &amp; 25TH ST (EB)</name>
        <description>Buses head EB</description>
        <Point>
          <coordinates>-121.471253,38.579247</coordinates>
        </Point>
      </Placemark>
      <Placemark>
        <name>F ST &amp; 27TH ST (EB)</name>
        <description>Buses head EB</description>
        <Point>
          <coordinates>-121.468582,38.578533</coordinates>
        </Point>
      </Placemark>
      <Placemark>
        <name>F ST &amp; 28TH ST (EB)</name>
        <description>Buses head EB</description>
        <Point>
          <coordinates>-121.467171,38.578156</coordinates>
        </Point>
      </Placemark>
      <Placemark>
        <name>F ST &amp; 29TH ST (EB)</name>
        <description>Buses head EB</description>
        <Point>
          <coordinates>-121.465790,38.577778</coordinates>
        </Point>
      </Placemark>
      <Placemark>
        <name>ALHAMBRA BLVD &amp; F ST (NB)</name>
        <description>Buses head NB</description>
        <Point>
          <coordinates>-121.463106,38.577418</coordinates>
        </Point>
      </Placemark>
      <Placemark>
        <name>MCKINLEY BLVD &amp; 34TH ST (EB)</name>
        <description>Buses head EB</description>
        <Point>
          <coordinates>-121.458398,38.576989</coordinates>
        </Point>
      </Placemark>
      <Placemark>
        <name>MCKINLEY BLVD &amp; SANTA YNEZ WAY (EB)</name>
        <description>Buses head EB</description>
        <Point>
          <coordinates>-121.456258,38.576438</coordinates>
        </Point>
      </Placemark>
      <Placemark>
        <name>MCKINLEY BLVD &amp; 37TH ST (EB)</name>
        <description>Buses head EB</description>
        <Point>
          <coordinates>-121.454566,38.576054</coordinates>
        </Point>
      </Placemark>
      <Placemark>
        <name>MCKINLEY BLVD &amp; D ST (EB)</name>
        <description>Buses head EB</description>
        <Point>
          <coordinates>-121.452093,38.576536</coordinates>
        </Point>
      </Placemark>
      <Placemark>
        <name>MCKINLEY BLVD &amp; SAN ANTONIO WAY (EB)</name>
        <description>Buses head EB</description>
        <Point>
          <coordinates>-121.449885,38.577047</coordinates>
        </Point>
      </Placemark>
      <Placemark>
        <name>MEISTER WAY &amp; 41ST ST (EB)</name>
        <description>Buses head EB</description>
        <Point>
          <coordinates>-121.446930,38.578621</coordinates>
        </Point>
      </Placemark>
      <Placemark>
        <name>MEISTER WAY &amp; 43RD ST (EB)</name>
        <description>Buses head EB</description>
        <Point>
          <coordinates>-121.444314,38.578783</coordinates>
        </Point>
      </Placemark>
      <Placemark>
        <name>A ST &amp; AIKEN WAY (EB)</name>
        <description>Buses head EB</description>
        <Point>
          <coordinates>-121.442940,38.577488</coordinates>
        </Point>
      </Placemark>
      <Placemark>
        <name>BRAND WAY &amp; 45TH ST (EB)</name>
        <description>Buses head EB</description>
        <Point>
          <coordinates>-121.442565,38.576320</coordinates>
        </Point>
      </Placemark>
      <Placemark>
        <name>BRAND WAY &amp; FALLON LN (EB)</name>
        <description>Buses head EB</description>
        <Point>
          <coordinates>-121.440403,38.575749</coordinates>
        </Point>
      </Placemark>
      <Placemark>
        <name>BRAND WAY &amp; 51ST ST (EB)</name>
        <description>Buses head EB</description>
        <Point>
          <coordinates>-121.437882,38.575082</coordinates>
        </Point>
      </Placemark>
      <Placemark>
        <name>51ST ST &amp; C ST (SB)</name>
        <description>Buses head SB</description>
        <Point>
          <coordinates>-121.437821,38.573719</coordinates>
        </Point>
      </Placemark>
      <Placemark>
        <name>F ST &amp; EL DORADO WAY (EB)</name>
        <description>Buses head EB</description>
        <Point>
          <coordinates>-121.437004,38.570343</coordinates>
        </Point>
      </Placemark>
      <Placemark>
        <name>F ST &amp; 54TH ST (EB)</name>
        <description>Buses head EB</description>
        <Point>
          <coordinates>-121.434897,38.570492</coordinates>
        </Point>
      </Placemark>
      <Placemark>
        <name>F ST &amp; ELVAS AVE (EB)</name>
        <description>Buses head EB</description>
        <Point>
          <coordinates>-121.433564,38.570605</coordinates>
        </Point>
      </Placemark>
      <Placemark>
        <name>ELVAS AVE &amp; 56TH ST (SB)</name>
        <description>Buses head SB</description>
        <Point>
          <coordinates>-121.434021,38.568176</coordinates>
        </Point>
      </Placemark>
      <Placemark>
        <name>H ST &amp; CARLSON DR (EB)</name>
        <description>Buses head EB</description>
        <Point>
          <coordinates>-121.430191,38.567455</coordinates>
        </Point>
      </Placemark>
      <Placemark>
        <name>H ST &amp; CARLSON DR (WB)</name>
        <description>Buses head WB</description>
        <Point>
          <coordinates>-121.429650,38.567766</coordinates>
        </Point>
      </Placemark>
      <Placemark>
        <name>56TH ST &amp; H ST (NB)</name>
        <description>Buses head NB</description>
        <Point>
          <coordinates>-121.433922,38.567959</coordinates>
        </Point>
      </Placemark>
      <Placemark>
        <name>F ST &amp; ELVAS AVE (WB)</name>
        <description>Buses head WB</description>
        <Point>
          <coordinates>-121.433830,38.570725</coordinates>
        </Point>
      </Placemark>
      <Placemark>
        <name>F ST &amp; 54TH ST (WB)</name>
        <description>Buses head WB</description>
        <Point>
          <coordinates>-121.435295,38.570515</coordinates>
        </Point>
      </Placemark>
      <Placemark>
        <name>F ST &amp; 53RD ST (WB)</name>
        <description>Buses head WB</description>
        <Point>
          <coordinates>-121.436760,38.570416</coordinates>
        </Point>
      </Placemark>
      <Placemark>
        <name>WATT/MANLOVE LRS &amp; BAY 2 (SB)</name>
        <description>Buses head SB</description>
        <Point>
          <coordinates>-121.372688,38.553745</coordinates>
        </Point>
      </Placemark>
      <Placemark>
        <name>WATT/MANLOVE LRS &amp; BAY 1 (EB)</name>
        <description>Buses head EB</description>
        <Point>
          <coordinates>-121.372528,38.553936</coordinates>
        </Point>
      </Placemark>
      <Placemark>
        <name>21ST ST &amp; 1ST AVE (SB)</name>
        <description>Buses head SB</description>
        <Point>
          <coordinates>-121.486323,38.558678</coordinates>
        </Point>
      </Placemark>
      <Placemark>
        <name>51ST ST &amp; B ST (NB)</name>
        <description>Buses head NB</description>
        <Point>
          <coordinates>-121.437652,38.574042</coordinates>
        </Point>
      </Placemark>
      <Placemark>
        <name>51ST ST &amp; BRAND WAY (NB)</name>
        <description>Buses head NB</description>
        <Point>
          <coordinates>-121.437576,38.574864</coordinates>
        </Point>
      </Placemark>
      <Placemark>
        <name>BRAND WAY &amp; FALLON LN (WB)</name>
        <description>Buses head WB</description>
        <Point>
          <coordinates>-121.440540,38.575888</coordinates>
        </Point>
      </Placemark>
      <Placemark>
        <name>45TH ST &amp; BRAND WAY (NB)</name>
        <description>Buses head NB</description>
        <Point>
          <coordinates>-121.442659,38.576536</coordinates>
        </Point>
      </Placemark>
      <Placemark>
        <name>A ST &amp; AIKEN WAY (WB)</name>
        <description>Buses head WB</description>
        <Point>
          <coordinates>-121.443654,38.577729</coordinates>
        </Point>
      </Placemark>
      <Placemark>
        <name>43RD ST &amp; MEISTER WAY (NB)</name>
        <description>Buses head NB</description>
        <Point>
          <coordinates>-121.444834,38.578513</coordinates>
        </Point>
      </Placemark>
      <Placemark>
        <name>MEISTER WAY &amp; TAYLOR WAY (NB)</name>
        <description>Buses head NB</description>
        <Point>
          <coordinates>-121.445671,38.578747</coordinates>
        </Point>
      </Placemark>
      <Placemark>
        <name>MCKINLEY BLVD &amp; MEISTER WY (WB)</name>
        <description>Buses head WB</description>
        <Point>
          <coordinates>-121.447388,38.578522</coordinates>
        </Point>
      </Placemark>
      <Placemark>
        <name>MCKINLEY BLVD &amp; 40TH ST (WB)</name>
        <description>Buses head WB</description>
        <Point>
          <coordinates>-121.449295,38.577278</coordinates>
        </Point>
      </Placemark>
      <Placemark>
        <name>MCKINLEY BLVD &amp; 39TH ST (WB)</name>
        <description>Buses head WB</description>
        <Point>
          <coordinates>-121.451798,38.576706</coordinates>
        </Point>
      </Placemark>
      <Placemark>
        <name>MCKINLEY BLVD &amp; 37TH ST (WB)</name>
        <description>Buses head WB</description>
        <Point>
          <coordinates>-121.453980,38.576187</coordinates>
        </Point>
      </Placemark>
      <Placemark>
        <name>MCKINLEY BLVD &amp; 36TH ST (WB)</name>
        <description>Buses head WB</description>
        <Point>
          <coordinates>-121.455475,38.576290</coordinates>
        </Point>
      </Placemark>
      <Placemark>
        <name>MCKINLEY BLVD &amp; 35TH ST (WB)</name>
        <description>Buses head WB</description>
        <Point>
          <coordinates>-121.456929,38.576725</coordinates>
        </Point>
      </Placemark>
      <Placemark>
        <name>MCKINLEY BLVD &amp; 33RD ST (WB)</name>
        <description>Buses head WB</description>
        <Point>
          <coordinates>-121.459074,38.577299</coordinates>
        </Point>
      </Placemark>
      <Placemark>
        <name>ALHAMBRA BLVD &amp; MCKINLEY BLVD (SB)</name>
        <description>Buses head SB</description>
        <Point>
          <coordinates>-121.463013,38.577961</coordinates>
        </Point>
      </Placemark>
      <Placemark>
        <name>F ST &amp; 30TH ST (WB)</name>
        <description>Buses head WB</description>
        <Point>
          <coordinates>-121.464951,38.577622</coordinates>
        </Point>
      </Placemark>
      <Placemark>
        <name>F ST &amp; 29TH ST (WB)</name>
        <description>Buses head WB</description>
        <Point>
          <coordinates>-121.466429,38.578041</coordinates>
        </Point>
      </Placemark>
      <Placemark>
        <name>F ST &amp; 27TH ST (WB)</name>
        <description>Buses head WB</description>
        <Point>
          <coordinates>-121.468821,38.578725</coordinates>
        </Point>
      </Placemark>
      <Placemark>
        <name>F ST &amp; 25TH ST (WB)</name>
        <description>Buses head WB</description>
        <Point>
          <coordinates>-121.471649,38.579454</coordinates>
        </Point>
      </Placemark>
      <Placemark>
        <name>F ST &amp; 23RD ST (WB)</name>
        <description>Buses head WB</description>
        <Point>
          <coordinates>-121.474272,38.580163</coordinates>
        </Point>
      </Placemark>
      <Placemark>
        <name>F ST &amp; 21ST ST (WB)</name>
        <description>Buses head WB</description>
        <Point>
          <coordinates>-121.476833,38.580840</coordinates>
        </Point>
      </Placemark>
      <Placemark>
        <name>F ST &amp; 20TH ST (WB)</name>
        <description>Buses head WB</description>
        <Point>
          <coordinates>-121.478292,38.581228</coordinates>
        </Point>
      </Placemark>
      <Placemark>
        <name>F ST &amp; 18TH ST (WB)</name>
        <description>Buses head WB</description>
        <Point>
          <coordinates>-121.480878,38.581939</coordinates>
        </Point>
      </Placemark>
      <Placemark>
        <name>F ST &amp; 16TH ST (WB)</name>
        <description>Buses head WB</description>
        <Point>
          <coordinates>-121.483608,38.582656</coordinates>
        </Point>
      </Placemark>
      <Placemark>
        <name>F ST &amp; 14TH ST (WB)</name>
        <description>Buses head WB</description>
        <Point>
          <coordinates>-121.486213,38.583352</coordinates>
        </Point>
      </Placemark>
      <Placemark>
        <name>F ST &amp; 12TH ST (WB)</name>
        <description>Buses head WB</description>
        <Point>
          <coordinates>-121.489126,38.584122</coordinates>
        </Point>
      </Placemark>
      <Placemark>
        <name>F ST &amp; 10TH ST (WB)</name>
        <description>Buses head WB</description>
        <Point>
          <coordinates>-121.491762,38.584828</coordinates>
        </Point>
      </Placemark>
      <Placemark>
        <name>F ST &amp; 8TH ST (EB)</name>
        <description>Buses head EB</description>
        <Point>
          <coordinates>-121.493935,38.585218</coordinates>
        </Point>
      </Placemark>
      <Placemark>
        <name>21ST ST &amp; 2ND AVE (SB)</name>
        <description>Buses head SB</description>
        <Point>
          <coordinates>-121.487275,38.556132</coordinates>
        </Point>
      </Placemark>
      <Placemark>
        <name>J ST &amp; 4TH ST (EB)</name>
        <description>Buses head EB</description>
        <Point>
          <coordinates>-121.501131,38.582261</coordinates>
        </Point>
      </Placemark>
      <Placemark>
        <name>J ST &amp; 6TH ST (EB)</name>
        <description>Buses head EB</description>
        <Point>
          <coordinates>-121.498661,38.581602</coordinates>
        </Point>
      </Placemark>
      <Placemark>
        <name>J ST &amp; 8TH ST (EB)</name>
        <description>Buses head EB</description>
        <Point>
          <coordinates>-121.496433,38.580997</coordinates>
        </Point>
      </Placemark>
      <Placemark>
        <name>J ST &amp; 9TH ST (EB)</name>
        <description>Buses head EB</description>
        <Point>
          <coordinates>-121.494675,38.580536</coordinates>
        </Point>
      </Placemark>
      <Placemark>
        <name>J ST &amp; 10TH ST (EB)</name>
        <description>Buses head EB</description>
        <Point>
          <coordinates>-121.493294,38.580172</coordinates>
        </Point>
      </Placemark>
      <Placemark>
        <name>J ST &amp; 11TH ST (EB)</name>
        <description>Buses head EB</description>
        <Point>
          <coordinates>-121.491717,38.579758</coordinates>
        </Point>
      </Placemark>
      <Placemark>
        <name>HAVENSIDE DR &amp; LAKESHORE CIR (SB)</name>
        <description>Buses head SB</description>
        <Point>
          <coordinates>-121.531600,38.509147</coordinates>
        </Point>
      </Placemark>
      <Placemark>
        <name>FOLSOM BLVD &amp; 41ST ST (EB)</name>
        <description>Buses head EB</description>
        <Point>
          <coordinates>-121.454666,38.564331</coordinates>
        </Point>
      </Placemark>
      <Placemark>
        <name>FOLSOM BLVD &amp; 42ND ST (EB)</name>
        <description>Buses head EB</description>
        <Point>
          <coordinates>-121.453049,38.563892</coordinates>
        </Point>
      </Placemark>
      <Placemark>
        <name>FOLSOM BLVD &amp; 43RD ST (EB)</name>
        <description>Buses head EB</description>
        <Point>
          <coordinates>-121.452248,38.563690</coordinates>
        </Point>
      </Placemark>
      <Placemark>
        <name>FOLSOM BLVD &amp; 46TH ST (EB)</name>
        <description>Buses head EB</description>
        <Point>
          <coordinates>-121.448917,38.562582</coordinates>
        </Point>
      </Placemark>
      <Placemark>
        <name>FOLSOM BLVD &amp; 47TH ST (EB)</name>
        <description>Buses head EB</description>
        <Point>
          <coordinates>-121.447739,38.562164</coordinates>
        </Point>
      </Placemark>
      <Placemark>
        <name>FOLSOM BLVD &amp; 49TH ST (EB)</name>
        <description>Buses head EB</description>
        <Point>
          <coordinates>-121.445191,38.561115</coordinates>
        </Point>
      </Placemark>
      <Placemark>
        <name>FOLSOM BLVD &amp; 51ST ST (EB)</name>
        <description>Buses head EB</description>
        <Point>
          <coordinates>-121.443405,38.560436</coordinates>
        </Point>
      </Placemark>
      <Placemark>
        <name>FOLSOM BLVD &amp; 53RD ST (EB)</name>
        <description>Buses head EB</description>
        <Point>
          <coordinates>-121.441254,38.559593</coordinates>
        </Point>
      </Placemark>
      <Placemark>
        <name>HAZEL AVE &amp; NIMBUS RD (NB)</name>
        <description>Buses head NB</description>
        <Point>
          <coordinates>-121.222222,38.634099</coordinates>
        </Point>
      </Placemark>
      <Placemark>
        <name>56TH AVE &amp; 13TH ST (WB)</name>
        <description>Buses head WB</description>
        <Point>
          <coordinates>-121.516492,38.501388</coordinates>
        </Point>
      </Placemark>
      <Placemark>
        <name>FAIR OAKS BLVD &amp; MARSHALL AVE (EB)</name>
        <description>Buses head EB</description>
        <Point>
          <coordinates>-121.310863,38.636494</coordinates>
        </Point>
      </Placemark>
      <Placemark>
        <name>P ST &amp; 7TH ST (WB)</name>
        <description>Buses head WB</description>
        <Point>
          <coordinates>-121.500694,38.574879</coordinates>
        </Point>
      </Placemark>
      <Placemark>
        <name>P ST &amp; 5TH ST (WB)</name>
        <description>Buses head WB</description>
        <Point>
          <coordinates>-121.503319,38.575611</coordinates>
        </Point>
      </Placemark>
      <Placemark>
        <name>I-5 FWY &amp; SEAMAS AVE (SB)</name>
        <description>Buses head SB</description>
        <Point>
          <coordinates>-121.521996,38.525547</coordinates>
        </Point>
      </Placemark>
      <Placemark>
        <name>NORTHROP AVE &amp; EVELYN LN (WB)</name>
        <description>Buses head WB</description>
        <Point>
          <coordinates>-121.400801,38.581572</coordinates>
        </Point>
      </Placemark>
      <Placemark>
        <name>SLP DR &amp; 13TH ST (EB)</name>
        <description>Buses head EB</description>
        <Point>
          <coordinates>-121.511261,38.506863</coordinates>
        </Point>
      </Placemark>
      <Placemark>
        <name>SLP DR &amp; 14TH ST (EB)</name>
        <description>Buses head EB</description>
        <Point>
          <coordinates>-121.509745,38.505450</coordinates>
        </Point>
      </Placemark>
      <Placemark>
        <name>SLP DR &amp; SLP DR (SB)</name>
        <description>Buses head SB</description>
        <Point>
          <coordinates>-121.507424,38.503382</coordinates>
        </Point>
      </Placemark>
      <Placemark>
        <name>SLP DR &amp; LOS PADRES WAY (SB)</name>
        <description>Buses head SB</description>
        <Point>
          <coordinates>-121.508261,38.502257</coordinates>
        </Point>
      </Placemark>
      <Placemark>
        <name>SLP DR &amp; 56TH AVE (SB)</name>
        <description>Buses head SB</description>
        <Point>
          <coordinates>-121.510023,38.500822</coordinates>
        </Point>
      </Placemark>
      <Placemark>
        <name>SLP DR &amp; 58TH AVE (SB)</name>
        <description>Buses head SB</description>
        <Point>
          <coordinates>-121.510302,38.497760</coordinates>
        </Point>
      </Placemark>
      <Placemark>
        <name>SLP DR &amp; FLORIN RD (NB)</name>
        <description>Buses head NB</description>
        <Point>
          <coordinates>-121.511632,38.496822</coordinates>
        </Point>
      </Placemark>
      <Placemark>
        <name>SLP DR &amp; FLORIN RD (SB)</name>
        <description>Buses head SB</description>
        <Point>
          <coordinates>-121.512047,38.494755</coordinates>
        </Point>
      </Placemark>
      <Placemark>
        <name>SLP DR &amp; SILVER RIDGE WAY (SB)</name>
        <description>Buses head SB</description>
        <Point>
          <coordinates>-121.511315,38.492132</coordinates>
        </Point>
      </Placemark>
      <Placemark>
        <name>SLP DR &amp; SUNLAND VISTA AVE (NB)</name>
        <description>Buses head NB</description>
        <Point>
          <coordinates>-121.511315,38.490188</coordinates>
        </Point>
      </Placemark>
      <Placemark>
        <name>SLP DR &amp; WILLOW LAKE WAY (WB)</name>
        <description>Buses head WB</description>
        <Point>
          <coordinates>-121.512837,38.489162</coordinates>
        </Point>
      </Placemark>
      <Placemark>
        <name>GREENHAVEN DR &amp; SLP DR (SB)</name>
        <description>Buses head SB</description>
        <Point>
          <coordinates>-121.517563,38.487766</coordinates>
        </Point>
      </Placemark>
      <Placemark>
        <name>GREENHAVEN DR &amp; HERITAGE WOOD CIR (SB)</name>
        <description>Buses head SB</description>
        <Point>
          <coordinates>-121.517502,38.486225</coordinates>
        </Point>
      </Placemark>
      <Placemark>
        <name>GREENHAVEN DR &amp; RUSH RIVER DR (SB)</name>
        <description>Buses head SB</description>
        <Point>
          <coordinates>-121.517732,38.482957</coordinates>
        </Point>
      </Placemark>
      <Placemark>
        <name>POCKET RD &amp; ALMA VISTA WAY (EB)</name>
        <description>Buses head EB</description>
        <Point>
          <coordinates>-121.507242,38.481172</coordinates>
        </Point>
      </Placemark>
      <Placemark>
        <name>MEADOWVIEW RD &amp; AMHERST ST (EB)</name>
        <description>Buses head EB</description>
        <Point>
          <coordinates>-121.500943,38.481247</coordinates>
        </Point>
      </Placemark>
      <Placemark>
        <name>MEADOWVIEW RD &amp; HENRIETTA DR (EB)</name>
        <description>Buses head EB</description>
        <Point>
          <coordinates>-121.497407,38.481298</coordinates>
        </Point>
      </Placemark>
      <Placemark>
        <name>MEADOWVIEW RD &amp; 19TH ST (EB)</name>
        <description>Buses head EB</description>
        <Point>
          <coordinates>-121.494088,38.481347</coordinates>
        </Point>
      </Placemark>
      <Placemark>
        <name>MEADOWVIEW RD &amp; MANORSIDE DR (EB)</name>
        <description>Buses head EB</description>
        <Point>
          <coordinates>-121.491425,38.481377</coordinates>
        </Point>
      </Placemark>
      <Placemark>
        <name>MEADOWVIEW RD &amp; 22ND ST (EB)</name>
        <description>Buses head EB</description>
        <Point>
          <coordinates>-121.486300,38.481383</coordinates>
        </Point>
      </Placemark>
      <Placemark>
        <name>MEADOWVIEW RD &amp; 24TH ST (EB)</name>
        <description>Buses head EB</description>
        <Point>
          <coordinates>-121.479904,38.481384</coordinates>
        </Point>
      </Placemark>
      <Placemark>
        <name>MEADOWVIEW RD &amp; CORAL GABLES CT (EB)</name>
        <description>Buses head EB</description>
        <Point>
          <coordinates>-121.474578,38.481427</coordinates>
        </Point>
      </Placemark>
      <Placemark>
        <name>MEADOWVIEW RD &amp; 29TH ST (EB)</name>
        <description>Buses head EB</description>
        <Point>
          <coordinates>-121.472055,38.481433</coordinates>
        </Point>
      </Placemark>
      <Placemark>
        <name>MEADOWVIEW RD &amp; DETROIT BLVD (EB)</name>
        <description>Buses head EB</description>
        <Point>
          <coordinates>-121.468142,38.481462</coordinates>
        </Point>
      </Placemark>
      <Placemark>
        <name>MEADOWVIEW RD &amp; G PKWY (EB)</name>
        <description>Buses head EB</description>
        <Point>
          <coordinates>-121.465320,38.481473</coordinates>
        </Point>
      </Placemark>
      <Placemark>
        <name>BROOKFIELD DR &amp; TEAK WAY (EB)</name>
        <description>Buses head EB</description>
        <Point>
          <coordinates>-121.460432,38.481568</coordinates>
        </Point>
      </Placemark>
      <Placemark>
        <name>BROOKFIELD DR &amp; MEADOWSTONE DR (EB)</name>
        <description>Buses head EB</description>
        <Point>
          <coordinates>-121.457532,38.481855</coordinates>
        </Point>
      </Placemark>
      <Placemark>
        <name>BROOKFIELD DR &amp; VALLEY WIND WAY (EB)</name>
        <description>Buses head EB</description>
        <Point>
          <coordinates>-121.454948,38.482045</coordinates>
        </Point>
      </Placemark>
      <Placemark>
        <name>FRANKLIN BLVD &amp; BROOKFIELD DR (SB)</name>
        <description>Buses head SB</description>
        <Point>
          <coordinates>-121.453160,38.482025</coordinates>
        </Point>
      </Placemark>
      <Placemark>
        <name>KIEFER BLVD &amp; MAYHEW RD (WB)</name>
        <description>Buses head WB</description>
        <Point>
          <coordinates>-121.344434,38.545606</coordinates>
        </Point>
      </Placemark>
      <Placemark>
        <name>MEADOWVIEW RD &amp; 24TH ST (WB)</name>
        <description>Buses head WB</description>
        <Point>
          <coordinates>-121.481011,38.481560</coordinates>
        </Point>
      </Placemark>
      <Placemark>
        <name>MEADOWVIEW RD &amp; TAMOSHANTER WAY (WB)</name>
        <description>Buses head WB</description>
        <Point>
          <coordinates>-121.487244,38.481506</coordinates>
        </Point>
      </Placemark>
      <Placemark>
        <name>MEADOWVIEW RD &amp; 21ST ST (WB)</name>
        <description>Buses head WB</description>
        <Point>
          <coordinates>-121.493973,38.481495</coordinates>
        </Point>
      </Placemark>
      <Placemark>
        <name>MEADOWVIEW RD &amp; HENRIETTA DR (WB)</name>
        <description>Buses head WB</description>
        <Point>
          <coordinates>-121.497124,38.481438</coordinates>
        </Point>
      </Placemark>
      <Placemark>
        <name>MEADOWVIEW RD &amp; AMHERST ST (WB)</name>
        <description>Buses head WB</description>
        <Point>
          <coordinates>-121.500565,38.481384</coordinates>
        </Point>
      </Placemark>
      <Placemark>
        <name>POCKET RD &amp; ALMA VISTA WAY (WB)</name>
        <description>Buses head WB</description>
        <Point>
          <coordinates>-121.507065,38.481361</coordinates>
        </Point>
      </Placemark>
      <Placemark>
        <name>GREENHAVEN DR &amp; POCKET RD (NB)</name>
        <description>Buses head NB</description>
        <Point>
          <coordinates>-121.516388,38.481037</coordinates>
        </Point>
      </Placemark>
      <Placemark>
        <name>GREENHAVEN DR &amp; ALDER TREE WAY (NB)</name>
        <description>Buses head NB</description>
        <Point>
          <coordinates>-121.517517,38.482933</coordinates>
        </Point>
      </Placemark>
      <Placemark>
        <name>GREENHAVEN DR &amp; HERITAGE WOOD CIR (NB)</name>
        <description>Buses head NB</description>
        <Point>
          <coordinates>-121.517304,38.486004</coordinates>
        </Point>
      </Placemark>
      <Placemark>
        <name>GREENHAVEN DR &amp; SLP DR (NB)</name>
        <description>Buses head NB</description>
        <Point>
          <coordinates>-121.517296,38.487671</coordinates>
        </Point>
      </Placemark>
      <Placemark>
        <name>SLP DR &amp; WILLOW LAKE WAY (EB)</name>
        <description>Buses head EB</description>
        <Point>
          <coordinates>-121.512276,38.489177</coordinates>
        </Point>
      </Placemark>
      <Placemark>
        <name>SLP DR &amp; SUNLAND VISTA AVE (NB)</name>
        <description>Buses head NB</description>
        <Point>
          <coordinates>-121.511171,38.490457</coordinates>
        </Point>
      </Placemark>
      <Placemark>
        <name>SLP DR &amp; SILVER RIDGE WAY (NB)</name>
        <description>Buses head NB</description>
        <Point>
          <coordinates>-121.511203,38.492613</coordinates>
        </Point>
      </Placemark>
      <Placemark>
        <name>SLP DR &amp; FARMDALE WAY (NB)</name>
        <description>Buses head NB</description>
        <Point>
          <coordinates>-121.511694,38.494608</coordinates>
        </Point>
      </Placemark>
      <Placemark>
        <name>SLP DR &amp; FLORIN RD (NB)</name>
        <description>Buses head NB</description>
        <Point>
          <coordinates>-121.511831,38.496438</coordinates>
        </Point>
      </Placemark>
      <Placemark>
        <name>SLP DR &amp; 58TH AVE (NB)</name>
        <description>Buses head NB</description>
        <Point>
          <coordinates>-121.510055,38.498365</coordinates>
        </Point>
      </Placemark>
      <Placemark>
        <name>SLP DR &amp; 56TH AVE (NB)</name>
        <description>Buses head NB</description>
        <Point>
          <coordinates>-121.509950,38.500710</coordinates>
        </Point>
      </Placemark>
      <Placemark>
        <name>SLP DR &amp; BUENA TERRA WAY (NB)</name>
        <description>Buses head NB</description>
        <Point>
          <coordinates>-121.508207,38.502093</coordinates>
        </Point>
      </Placemark>
      <Placemark>
        <name>SLP DR &amp; SLP DR (EB)</name>
        <description>Buses head EB</description>
        <Point>
          <coordinates>-121.507220,38.503393</coordinates>
        </Point>
      </Placemark>
      <Placemark>
        <name>SLP DR &amp; 14TH ST (NB)</name>
        <description>Buses head NB</description>
        <Point>
          <coordinates>-121.509516,38.505450</coordinates>
        </Point>
      </Placemark>
      <Placemark>
        <name>L ST &amp; 21ST ST (WB)</name>
        <description>Buses head WB</description>
        <Point>
          <coordinates>-121.479843,38.574249</coordinates>
        </Point>
      </Placemark>
      <Placemark>
        <name>L ST &amp; 19TH ST (WB)</name>
        <description>Buses head WB</description>
        <Point>
          <coordinates>-121.482491,38.574993</coordinates>
        </Point>
      </Placemark>
      <Placemark>
        <name>L ST &amp; 17TH ST (WB)</name>
        <description>Buses head WB</description>
        <Point>
          <coordinates>-121.485176,38.575684</coordinates>
        </Point>
      </Placemark>
      <Placemark>
        <name>L ST &amp; 14TH ST (WB)</name>
        <description>Buses head WB</description>
        <Point>
          <coordinates>-121.489190,38.576819</coordinates>
        </Point>
      </Placemark>
      <Placemark>
        <name>L ST &amp; 11TH ST (WB)</name>
        <description>Buses head WB</description>
        <Point>
          <coordinates>-121.493614,38.577934</coordinates>
        </Point>
      </Placemark>
      <Placemark>
        <name>L ST &amp; 9TH ST (WB)</name>
        <description>Buses head WB</description>
        <Point>
          <coordinates>-121.496282,38.578687</coordinates>
        </Point>
      </Placemark>
      <Placemark>
        <name>NORTH BEND DR &amp; GATEWAY PARK BLVD (EB)</name>
        <description>Buses head EB</description>
        <Point>
          <coordinates>-121.502489,38.659553</coordinates>
        </Point>
      </Placemark>
      <Placemark>
        <name>L ST &amp; 4TH ST (WB)</name>
        <description>Buses head WB</description>
        <Point>
          <coordinates>-121.502180,38.580293</coordinates>
        </Point>
      </Placemark>
      <Placemark>
        <name>RICHARDS BLVD &amp; BERCUT DR (EB)</name>
        <description>Buses head EB</description>
        <Point>
          <coordinates>-121.502068,38.597134</coordinates>
        </Point>
      </Placemark>
      <Placemark>
        <name>RICHARDS BLVD &amp; NORTH 05TH ST (EB)</name>
        <description>Buses head EB</description>
        <Point>
          <coordinates>-121.494171,38.596558</coordinates>
        </Point>
      </Placemark>
      <Placemark>
        <name>RICHARDS BLVD &amp; DOS RIOS ST (EB)</name>
        <description>Buses head EB</description>
        <Point>
          <coordinates>-121.483711,38.595230</coordinates>
        </Point>
      </Placemark>
      <Placemark>
        <name>SUNBEAM AVE &amp; RICHARDS BLVD (SB)</name>
        <description>Buses head SB</description>
        <Point>
          <coordinates>-121.480255,38.594662</coordinates>
        </Point>
      </Placemark>
      <Placemark>
        <name>16TH ST &amp; BASLER ST (NB)</name>
        <description>Buses head NB</description>
        <Point>
          <coordinates>-121.478955,38.592254</coordinates>
        </Point>
      </Placemark>
      <Placemark>
        <name>SUNBEAM AVE &amp; N 12TH ST (SB)</name>
        <description>Buses head SB</description>
        <Point>
          <coordinates>-121.480896,38.593376</coordinates>
        </Point>
      </Placemark>
      <Placemark>
        <name>TRUXEL RD &amp; TERRACINA DR (NB)</name>
        <description>Buses head NB</description>
        <Point>
          <coordinates>-121.511675,38.652966</coordinates>
        </Point>
      </Placemark>
      <Placemark>
        <name>DUDLEY BLVD &amp; PEACEKEEPER WAY (SB)</name>
        <description>Buses head SB</description>
        <Point>
          <coordinates>-121.388304,38.661043</coordinates>
        </Point>
      </Placemark>
      <Placemark>
        <name>DEL PASO BLVD &amp; WINNIPEG ST (NB)</name>
        <description>Buses head NB</description>
        <Point>
          <coordinates>-121.453911,38.608551</coordinates>
        </Point>
      </Placemark>
      <Placemark>
        <name>DEL PASO BLVD &amp; EL CAMINO AVE (NB)</name>
        <description>Buses head NB</description>
        <Point>
          <coordinates>-121.449287,38.610794</coordinates>
        </Point>
      </Placemark>
      <Placemark>
        <name>DEL PASO BLVD &amp; EL CAMINO AVE (NB)</name>
        <description>Buses head NB</description>
        <Point>
          <coordinates>-121.447861,38.611530</coordinates>
        </Point>
      </Placemark>
      <Placemark>
        <name>DEL PASO BLVD &amp; BOXWOOD ST (NB)</name>
        <description>Buses head NB</description>
        <Point>
          <coordinates>-121.446182,38.612827</coordinates>
        </Point>
      </Placemark>
      <Placemark>
        <name>ARCADE BLVD &amp; DIGGS PARK DR (WB)</name>
        <description>Buses head WB</description>
        <Point>
          <coordinates>-121.427574,38.626499</coordinates>
        </Point>
      </Placemark>
      <Placemark>
        <name>MARYSVILLE BLVD &amp; ARCADE BLVD (NB)</name>
        <description>Buses head NB</description>
        <Point>
          <coordinates>-121.432907,38.625851</coordinates>
        </Point>
      </Placemark>
      <Placemark>
        <name>MARYSVILLE BLVD &amp; LOS ROBLES BLVD 1 (NB)</name>
        <description>Buses head NB</description>
        <Point>
          <coordinates>-121.431603,38.629074</coordinates>
        </Point>
      </Placemark>
      <Placemark>
        <name>MARYSVILLE BLVD &amp; LOS ROBLES BLVD 2 (NB)</name>
        <description>Buses head NB</description>
        <Point>
          <coordinates>-121.431206,38.630276</coordinates>
        </Point>
      </Placemark>
      <Placemark>
        <name>MARYSVILLE BLVD &amp; SOUTH AVE (NB)</name>
        <description>Buses head NB</description>
        <Point>
          <coordinates>-121.430512,38.633110</coordinates>
        </Point>
      </Placemark>
      <Placemark>
        <name>ORANGE GROVE AVE &amp; COLLEGE OAK DR (WB)</name>
        <description>Buses head WB</description>
        <Point>
          <coordinates>-121.351067,38.650166</coordinates>
        </Point>
      </Placemark>
      <Placemark>
        <name>ORANGE GROVE AVE &amp; PASADENA AVE (WB)</name>
        <description>Buses head WB</description>
        <Point>
          <coordinates>-121.357010,38.648613</coordinates>
        </Point>
      </Placemark>
      <Placemark>
        <name>AUBURN BLVD &amp; ORANGE GROVE AVE (WB)</name>
        <description>Buses head WB</description>
        <Point>
          <coordinates>-121.361370,38.647107</coordinates>
        </Point>
      </Placemark>
      <Placemark>
        <name>AUBURN BLVD &amp; JONES RD (WB)</name>
        <description>Buses head WB</description>
        <Point>
          <coordinates>-121.363992,38.644847</coordinates>
        </Point>
      </Placemark>
      <Placemark>
        <name>AUBURN BLVD &amp; NORRIS AVE (WB)</name>
        <description>Buses head WB</description>
        <Point>
          <coordinates>-121.369753,38.641755</coordinates>
        </Point>
      </Placemark>
      <Placemark>
        <name>AUBURN BLVD &amp; BERESFORD WAY (WB)</name>
        <description>Buses head WB</description>
        <Point>
          <coordinates>-121.372277,38.640987</coordinates>
        </Point>
      </Placemark>
      <Placemark>
        <name>AUBURN BLVD &amp; PASADENA AVE (WB)</name>
        <description>Buses head WB</description>
        <Point>
          <coordinates>-121.375018,38.640165</coordinates>
        </Point>
      </Placemark>
      <Placemark>
        <name>AUBURN BLVD &amp; BRIDGE RD (WB)</name>
        <description>Buses head WB</description>
        <Point>
          <coordinates>-121.376947,38.639537</coordinates>
        </Point>
      </Placemark>
      <Placemark>
        <name>AUBURN BLVD &amp; ANNADALE LN (WB)</name>
        <description>Buses head WB</description>
        <Point>
          <coordinates>-121.378813,38.638862</coordinates>
        </Point>
      </Placemark>
      <Placemark>
        <name>AUBURN BLVD &amp; WATT AVE (WB)</name>
        <description>Buses head WB</description>
        <Point>
          <coordinates>-121.380423,38.638230</coordinates>
        </Point>
      </Placemark>
      <Placemark>
        <name>WINTERS ST &amp; GRAND AVE (SB)</name>
        <description>Buses head SB</description>
        <Point>
          <coordinates>-121.411606,38.637245</coordinates>
        </Point>
      </Placemark>
      <Placemark>
        <name>GRAND AVE &amp; RIPLEY ST (WB)</name>
        <description>Buses head WB</description>
        <Point>
          <coordinates>-121.413841,38.636498</coordinates>
        </Point>
      </Placemark>
      <Placemark>
        <name>GRAND AVE &amp; ASTORIA ST (WB)</name>
        <description>Buses head WB</description>
        <Point>
          <coordinates>-121.416374,38.636524</coordinates>
        </Point>
      </Placemark>
      <Placemark>
        <name>GRAND AVE &amp; DAYTON ST (WB)</name>
        <description>Buses head WB</description>
        <Point>
          <coordinates>-121.419197,38.636505</coordinates>
        </Point>
      </Placemark>
      <Placemark>
        <name>GRAND AVE &amp; MAHOGANY ST (WB)</name>
        <description>Buses head WB</description>
        <Point>
          <coordinates>-121.423561,38.636463</coordinates>
        </Point>
      </Placemark>
      <Placemark>
        <name>GRAND AVE &amp; JASMINE ST (WB)</name>
        <description>Buses head WB</description>
        <Point>
          <coordinates>-121.427124,38.636501</coordinates>
        </Point>
      </Placemark>
      <Placemark>
        <name>MARYSVILLE BLVD &amp; GRAND AVE (SB)</name>
        <description>Buses head SB</description>
        <Point>
          <coordinates>-121.430016,38.636139</coordinates>
        </Point>
      </Placemark>
      <Placemark>
        <name>MARYSVILLE BLVD &amp; SOUTH AVE (SB)</name>
        <description>Buses head SB</description>
        <Point>
          <coordinates>-121.430603,38.633648</coordinates>
        </Point>
      </Placemark>
      <Placemark>
        <name>MARYSVILLE BLVD &amp; LOS ROBLES BLVD (SB)</name>
        <description>Buses head SB</description>
        <Point>
          <coordinates>-121.431320,38.630627</coordinates>
        </Point>
      </Placemark>
      <Placemark>
        <name>MARYSVILLE BLVD &amp; LOS ROBLES BLVD (SB)</name>
        <description>Buses head SB</description>
        <Point>
          <coordinates>-121.432037,38.628582</coordinates>
        </Point>
      </Placemark>
      <Placemark>
        <name>ARCADE BLVD &amp; MARYSVILLE BLVD (EB)</name>
        <description>Buses head EB</description>
        <Point>
          <coordinates>-121.432303,38.625490</coordinates>
        </Point>
      </Placemark>
      <Placemark>
        <name>ARCADE BLVD &amp; DEL PASO BLVD (EB)</name>
        <description>Buses head EB</description>
        <Point>
          <coordinates>-121.427368,38.626312</coordinates>
        </Point>
      </Placemark>
      <Placemark>
        <name>DEL PASO BLVD &amp; LAMPASAS AVE (SB)</name>
        <description>Buses head SB</description>
        <Point>
          <coordinates>-121.445389,38.613758</coordinates>
        </Point>
      </Placemark>
      <Placemark>
        <name>DEL PASO BLVD &amp; EL CAMINO AVE (SB)</name>
        <description>Buses head SB</description>
        <Point>
          <coordinates>-121.448349,38.611481</coordinates>
        </Point>
      </Placemark>
      <Placemark>
        <name>DEL PASO BLVD &amp; EL CAMINO AVE (SB)</name>
        <description>Buses head SB</description>
        <Point>
          <coordinates>-121.449608,38.610859</coordinates>
        </Point>
      </Placemark>
      <Placemark>
        <name>DEL PASO BLVD &amp; WINNIPEG ST (SB)</name>
        <description>Buses head SB</description>
        <Point>
          <coordinates>-121.453895,38.608702</coordinates>
        </Point>
      </Placemark>
      <Placemark>
        <name>21ST AVE &amp; FRANKLIN BLVD (WB)</name>
        <description>Buses head WB</description>
        <Point>
          <coordinates>-121.473690,38.533683</coordinates>
        </Point>
      </Placemark>
      <Placemark>
        <name>RICHARDS BLVD &amp; DOS RIOS ST (WB)</name>
        <description>Buses head WB</description>
        <Point>
          <coordinates>-121.484963,38.595360</coordinates>
        </Point>
      </Placemark>
      <Placemark>
        <name>RICHARDS BLVD &amp; NORTH 10TH ST (WB)</name>
        <description>Buses head WB</description>
        <Point>
          <coordinates>-121.487404,38.595181</coordinates>
        </Point>
      </Placemark>
      <Placemark>
        <name>RICHARDS BLVD &amp; NORTH 07TH ST (WB)</name>
        <description>Buses head WB</description>
        <Point>
          <coordinates>-121.491776,38.596153</coordinates>
        </Point>
      </Placemark>
      <Placemark>
        <name>RICHARDS BLVD &amp; NORTH 05TH ST (WB)</name>
        <description>Buses head WB</description>
        <Point>
          <coordinates>-121.495621,38.597149</coordinates>
        </Point>
      </Placemark>
      <Placemark>
        <name>RICHARDS BLVD &amp; BERCUT DR (WB)</name>
        <description>Buses head WB</description>
        <Point>
          <coordinates>-121.501824,38.597332</coordinates>
        </Point>
      </Placemark>
      <Placemark>
        <name>RICHARDS BLVD &amp; SEQUOIA PACIFIC BLVD (WB)</name>
        <description>Buses head WB</description>
        <Point>
          <coordinates>-121.497940,38.597279</coordinates>
        </Point>
      </Placemark>
      <Placemark>
        <name>BELVEDERE AVE &amp; FLORIN PERKINS RD (WB)</name>
        <description>Buses head WB</description>
        <Point>
          <coordinates>-121.391979,38.538641</coordinates>
        </Point>
      </Placemark>
      <Placemark>
        <name>GATEWAY OAKS DR &amp; GARDEN HWY (NB)</name>
        <description>Buses head NB</description>
        <Point>
          <coordinates>-121.513756,38.604332</coordinates>
        </Point>
      </Placemark>
      <Placemark>
        <name>GATEWAY OAKS DR &amp; RIVER PLAZA DR (NB)</name>
        <description>Buses head NB</description>
        <Point>
          <coordinates>-121.512799,38.605955</coordinates>
        </Point>
      </Placemark>
      <Placemark>
        <name>GATEWAY OAKS DR &amp; VENTURE OAKS WAY (NB)</name>
        <description>Buses head NB</description>
        <Point>
          <coordinates>-121.513460,38.608260</coordinates>
        </Point>
      </Placemark>
      <Placemark>
        <name>GATEWAY OAKS DR &amp; OAK HARBOUR DR (NB)</name>
        <description>Buses head NB</description>
        <Point>
          <coordinates>-121.516350,38.608902</coordinates>
        </Point>
      </Placemark>
      <Placemark>
        <name>GATEWAY OAKS DR &amp; W ELCAMINO AVE (NB)</name>
        <description>Buses head NB</description>
        <Point>
          <coordinates>-121.516991,38.612507</coordinates>
        </Point>
      </Placemark>
      <Placemark>
        <name>W ELCAMINO AVE &amp; CAPITOL OAKS DR (EB)</name>
        <description>Buses head EB</description>
        <Point>
          <coordinates>-121.507156,38.613102</coordinates>
        </Point>
      </Placemark>
      <Placemark>
        <name>W ELCAMINO AVE &amp; AZEVEDO DR (EB)</name>
        <description>Buses head EB</description>
        <Point>
          <coordinates>-121.504685,38.612675</coordinates>
        </Point>
      </Placemark>
      <Placemark>
        <name>W ELCAMINO AVE &amp; MILLCREEK DR (WB)</name>
        <description>Buses head WB</description>
        <Point>
          <coordinates>-121.501244,38.612591</coordinates>
        </Point>
      </Placemark>
      <Placemark>
        <name>W ELCAMINO AVE &amp; TRUXEL RD (EB)</name>
        <description>Buses head EB</description>
        <Point>
          <coordinates>-121.497505,38.612679</coordinates>
        </Point>
      </Placemark>
      <Placemark>
        <name>W ELCAMINO AVE &amp; SEAMIST DR (EB)</name>
        <description>Buses head EB</description>
        <Point>
          <coordinates>-121.492928,38.612862</coordinates>
        </Point>
      </Placemark>
      <Placemark>
        <name>W ELCAMINO AVE &amp; REINER WAY (EB)</name>
        <description>Buses head EB</description>
        <Point>
          <coordinates>-121.489983,38.612873</coordinates>
        </Point>
      </Placemark>
      <Placemark>
        <name>W ELCAMINO AVE &amp; THELMA AVE (EB)</name>
        <description>Buses head EB</description>
        <Point>
          <coordinates>-121.485680,38.612660</coordinates>
        </Point>
      </Placemark>
      <Placemark>
        <name>W ELCAMINO AVE &amp; NORBERT WAY (EB)</name>
        <description>Buses head EB</description>
        <Point>
          <coordinates>-121.481316,38.611942</coordinates>
        </Point>
      </Placemark>
      <Placemark>
        <name>W ELCAMINO AVE &amp; NORTHVIEW DR (EB)</name>
        <description>Buses head EB</description>
        <Point>
          <coordinates>-121.479050,38.611561</coordinates>
        </Point>
      </Placemark>
      <Placemark>
        <name>W ELCAMINO AVE &amp; NORTHGATE BLVD (EB)</name>
        <description>Buses head EB</description>
        <Point>
          <coordinates>-121.475174,38.611229</coordinates>
        </Point>
      </Placemark>
      <Placemark>
        <name>W ELCAMINO AVE &amp; AMERICAN AVE (EB)</name>
        <description>Buses head EB</description>
        <Point>
          <coordinates>-121.470133,38.611151</coordinates>
        </Point>
      </Placemark>
      <Placemark>
        <name>EL CAMINO AVE &amp; COLFAX ST (EB)</name>
        <description>Buses head EB</description>
        <Point>
          <coordinates>-121.464363,38.610882</coordinates>
        </Point>
      </Placemark>
      <Placemark>
        <name>E ST &amp; 12TH ST (WB)</name>
        <description>Buses head WB</description>
        <Point>
          <coordinates>-121.488707,38.585225</coordinates>
        </Point>
      </Placemark>
      <Placemark>
        <name>JAMES WAY &amp; SKVARLA AVE (WB)</name>
        <description>Buses head WB</description>
        <Point>
          <coordinates>-121.385772,38.668700</coordinates>
        </Point>
      </Placemark>
      <Placemark>
        <name>AUBURN BLVD &amp; WATT AVE (EB)</name>
        <description>Buses head EB</description>
        <Point>
          <coordinates>-121.382112,38.637427</coordinates>
        </Point>
      </Placemark>
      <Placemark>
        <name>AUBURN BLVD &amp; ANNADALE LN (EB)</name>
        <description>Buses head EB</description>
        <Point>
          <coordinates>-121.377622,38.639180</coordinates>
        </Point>
      </Placemark>
      <Placemark>
        <name>AUBURN BLVD &amp; PASADENA AVE (EB)</name>
        <description>Buses head EB</description>
        <Point>
          <coordinates>-121.375018,38.640053</coordinates>
        </Point>
      </Placemark>
      <Placemark>
        <name>AUBURN BLVD &amp; BERESFORD WAY (EB)</name>
        <description>Buses head EB</description>
        <Point>
          <coordinates>-121.372206,38.640873</coordinates>
        </Point>
      </Placemark>
      <Placemark>
        <name>AUBURN BLVD &amp; NORRIS AVE (EB)</name>
        <description>Buses head EB</description>
        <Point>
          <coordinates>-121.369228,38.641748</coordinates>
        </Point>
      </Placemark>
      <Placemark>
        <name>AUBURN BLVD &amp; JONES RD (EB)</name>
        <description>Buses head EB</description>
        <Point>
          <coordinates>-121.364608,38.644138</coordinates>
        </Point>
      </Placemark>
      <Placemark>
        <name>ORANGE GROVE AVE &amp; AUBURN BLVD (EB)</name>
        <description>Buses head EB</description>
        <Point>
          <coordinates>-121.359921,38.647685</coordinates>
        </Point>
      </Placemark>
      <Placemark>
        <name>ORANGE GROVE AVE &amp; PASADENA AVE (EB)</name>
        <description>Buses head EB</description>
        <Point>
          <coordinates>-121.356252,38.648691</coordinates>
        </Point>
      </Placemark>
      <Placemark>
        <name>ORANGE GROVE AVE &amp; SYCAMORE AVE (EB)</name>
        <description>Buses head EB</description>
        <Point>
          <coordinates>-121.353390,38.649453</coordinates>
        </Point>
      </Placemark>
      <Placemark>
        <name>COLLEGE OAK DR &amp; ORANGE GROVE AVE (NB)</name>
        <description>Buses head NB</description>
        <Point>
          <coordinates>-121.350502,38.650838</coordinates>
        </Point>
      </Placemark>
      <Placemark>
        <name>COLLEGE OAK DR &amp; MYRTLE AVE (NB)</name>
        <description>Buses head NB</description>
        <Point>
          <coordinates>-121.350327,38.653889</coordinates>
        </Point>
      </Placemark>
      <Placemark>
        <name>COLLEGE OAK DR &amp; AUBURN BLVD (NB)</name>
        <description>Buses head NB</description>
        <Point>
          <coordinates>-121.350433,38.656662</coordinates>
        </Point>
      </Placemark>
      <Placemark>
        <name>AUBURN BLVD &amp; MADISON AVE (EB)</name>
        <description>Buses head EB</description>
        <Point>
          <coordinates>-121.346298,38.661224</coordinates>
        </Point>
      </Placemark>
      <Placemark>
        <name>AUBURN BLVD &amp; KOHLER RD (EB)</name>
        <description>Buses head EB</description>
        <Point>
          <coordinates>-121.343666,38.663521</coordinates>
        </Point>
      </Placemark>
      <Placemark>
        <name>AUBURN BLVD &amp; HEMLOCK ST (EB)</name>
        <description>Buses head EB</description>
        <Point>
          <coordinates>-121.341034,38.665749</coordinates>
        </Point>
      </Placemark>
      <Placemark>
        <name>AUBURN BLVD &amp; PALM AVE (EB)</name>
        <description>Buses head EB</description>
        <Point>
          <coordinates>-121.338776,38.667420</coordinates>
        </Point>
      </Placemark>
      <Placemark>
        <name>AUBURN BLVD &amp; GARFIELD AVE (EB)</name>
        <description>Buses head EB</description>
        <Point>
          <coordinates>-121.336235,38.668346</coordinates>
        </Point>
      </Placemark>
      <Placemark>
        <name>AUBURN BLVD &amp; GARFIELD AVE (EB)</name>
        <description>Buses head EB</description>
        <Point>
          <coordinates>-121.331749,38.670586</coordinates>
        </Point>
      </Placemark>
      <Placemark>
        <name>AUBURN BLVD &amp; MANZANITA AVE (EB)</name>
        <description>Buses head EB</description>
        <Point>
          <coordinates>-121.327240,38.673702</coordinates>
        </Point>
      </Placemark>
      <Placemark>
        <name>AUBURN BLVD &amp; SHADOW LN-1 (EB)</name>
        <description>Buses head EB</description>
        <Point>
          <coordinates>-121.324217,38.676230</coordinates>
        </Point>
      </Placemark>
      <Placemark>
        <name>JAMES WAY &amp; DUDLEY BLVD (EB)</name>
        <description>Buses head EB</description>
        <Point>
          <coordinates>-121.387097,38.668545</coordinates>
        </Point>
      </Placemark>
      <Placemark>
        <name>DUDLEY AVE &amp; PALM AVE (SB)</name>
        <description>Buses head SB</description>
        <Point>
          <coordinates>-121.387057,38.665074</coordinates>
        </Point>
      </Placemark>
      <Placemark>
        <name>ZINFANDEL DR &amp; ROSS PARKING LOT (NB)</name>
        <description>Buses head NB</description>
        <Point>
          <coordinates>-121.289349,38.595185</coordinates>
        </Point>
      </Placemark>
      <Placemark>
        <name>CHRYSANTHY BLVD &amp; ANATOLIA DR (EB)</name>
        <description>Buses head EB</description>
        <Point>
          <coordinates>-121.237891,38.548214</coordinates>
        </Point>
      </Placemark>
      <Placemark>
        <name>RIO LINDA BLVD &amp; BELL AVE (SB)</name>
        <description>Buses head SB</description>
        <Point>
          <coordinates>-121.447846,38.648148</coordinates>
        </Point>
      </Placemark>
      <Placemark>
        <name>NORTH MATHER BLVD &amp; SPOTO DR (EB)</name>
        <description>Buses head EB</description>
        <Point>
          <coordinates>-121.279121,38.569063</coordinates>
        </Point>
      </Placemark>
      <Placemark>
        <name>NORTH MATHER BLVD &amp; SPOTO DR (WB)</name>
        <description>Buses head WB</description>
        <Point>
          <coordinates>-121.279058,38.569225</coordinates>
        </Point>
      </Placemark>
      <Placemark>
        <name>BAROQUE DR &amp; CORVINA DR (EB)</name>
        <description>Buses head EB</description>
        <Point>
          <coordinates>-121.277164,38.578794</coordinates>
        </Point>
      </Placemark>
      <Placemark>
        <name>COLLEGE OAK DR &amp; ORANGE GROVE AVE (SB)</name>
        <description>Buses head SB</description>
        <Point>
          <coordinates>-121.350694,38.649722</coordinates>
        </Point>
      </Placemark>
      <Placemark>
        <name>8TH ST &amp; F ST (NB)</name>
        <description>Buses head NB</description>
        <Point>
          <coordinates>-121.494293,38.585190</coordinates>
        </Point>
      </Placemark>